year,ncessch,school_name,state_location,lea_name,school_level,school_type,charter,school_status,lowest_grade_offered,highest_grade_offered,enrollment,title_i_status,title_i_eligible,title_i_schoolwide,magnet,shared_time,virtual,lunch_program,teachers_fte,school_id,seasch,city_location,zip_location,latitude,longitude,urban_centric_locale,congress_district_id,state_leg_district_lower,state_leg_district_upper,free_lunch,reduced_price_lunch,free_or_reduced_price_lunch,direct_certification
"2018","370001201488","A G Cox Middle","NC","Pitt County Schools","Middle","Regular school","No","Open","6","8","805","School is eligible for Title I Schoolwide program (SWP) and provides Title I Schoolwide program","Yes","Yes","No","No","Supplemental virtual","Yes participating without using any Provision or the CEP","46","01488","740-302","Winterville","28590","35.524531","-77.401058","Suburb, midsize","3703","37009","37005","360","29","389",""
"2018","370333001392","A H Snipes Academy of Arts/Des","NC","New Hanover County Schools","Primary","Regular school","No","Open","Kindergarten","5","391","School is eligible for Title I Schoolwide program (SWP) and provides Title I Schoolwide program","Yes","Yes","Yes","No","No","Yes participating without using any Provision or the CEP","35","01392","650-384","Wilmington","28405","34.239649","-77.92034","City, midsize","3707","37018","37009","388","0","388",""
"2018","370243001039","A L Brown High","NC","Kannapolis City Schools","High","Regular school","No","Open","9","12","1616","School is not eligible for either Title I Targeted Assistance or Schoolwide program","No","No","No","No","No","Yes participating without using any Provision or the CEP","98","01039","132-304","Kannapolis","28083","35.496219","-80.618591","Suburb, midsize","3708","37082","37036","1608","0","1608",""
"2018","370348001441","A L Stanback Middle","NC","Orange County Schools","Middle","Regular school","No","Open","6","8","648","School is eligible for Title I Schoolwide program (SWP) but provides no program","Yes","Yes","No","No","No","Yes participating without using any Provision or the CEP","45","01441","680-304","Hillsborough","27278","36.027141","-79.077917","Rural, fringe","3704","37050","37023","294","32","326",""
"2018","370053000208","A T Allen Elementary","NC","Cabarrus County Schools","Primary","Regular school","No","Open","Kindergarten","5","873","School is eligible for Title I Schoolwide program (SWP) and provides Title I Schoolwide program","Yes","Yes","No","No","No","Yes participating without using any Provision or the CEP","55","00208","130-304","Concord","28025","35.362379","-80.512966","Rural, fringe","3708","37083","37036","435","60","495",""
"2018","370472003241","Abbotts Creek Elementary","NC","Wake County Schools","Primary","Regular school","No","Open","Pre-K","5","858","School is not eligible for either Title I Targeted Assistance or Schoolwide program","No","No","No","No","No","Yes participating without using any Provision or the CEP","53","03241","920-303","Raleigh","27614","35.90278","-78.578001","City, large","3702","37035","37014","172","36","208",""
"2018","370309001315","Aberdeen Elementary","NC","Moore County Schools","Primary","Regular school","No","Open","3","5","297","School is eligible for Title I Schoolwide program (SWP) and provides Title I Schoolwide program","Yes","Yes","No","No","No","Yes participating without using any Provision or the CEP","23","01315","630-308","Aberdeen","28315","35.139737","-79.426019","Town, distant","3708","37052","37025","230","15","245",""
"2018","370309001314","Aberdeen Primary","NC","Moore County Schools","Primary","Regular school","No","Open","Pre-K","2","308","School is eligible for Title I Schoolwide program (SWP) and provides Title I Schoolwide program","Yes","Yes","No","No","No","Yes participating without using any Provision or the CEP","22","01314","630-304","Aberdeen","28315","35.124057","-79.423412","Town, distant","3708","37052","37025","238","4","242",""
"2018","370003002972","ABSS Early College at ACC","NC","Alamance-Burlington Schools","High","Regular school","No","Open","9","13","228","School is eligible for Title I Schoolwide program (SWP) but provides no program","Yes","Yes","No","No","No","Yes participating without using any Provision or the CEP","6","02972","010-303","Graham","27253","36.066506","-79.357746","Rural, fringe","3706","37063","37024","77","22","99",""
"2018","370192002889","Academy at Smith","NC","Guilford County Schools","High","Regular school","No","Open","9","12","185","School is not eligible for either Title I Targeted Assistance or Schoolwide program","No","No","Yes","No","No","Yes participating without using any Provision or the CEP","16","02889","410-545","Greensboro","27407","36.034498","-79.847798","City, large","3713","37058","37028","123","24","147",""
"2018","370096000357","Acme Delco Elementary","NC","Columbus County Schools","Primary","Regular school","No","Open","Pre-K","5","318","School is eligible for Title I Schoolwide program (SWP) and provides Title I Schoolwide program","Yes","Yes","No","No","No","Yes participating without using any Provision or the CEP","21","00357","240-308","Riegelwood","28456","34.347773","-78.254261","Rural, distant","3707","37016","37013","315","0","315",""
"2018","370096000358","Acme Delco Middle","NC","Columbus County Schools","Middle","Regular school","No","Open","6","8","131","School is eligible for Title I Schoolwide program (SWP) and provides Title I Schoolwide program","Yes","Yes","No","No","No","Yes participating without using any Provision or the CEP","9","00358","240-304","Delco","28436","34.315912","-78.216164","Rural, distant","3707","37016","37013","128","0","128",""
"2018","370472001826","Adams Elementary","NC","Wake County Schools","Primary","Regular school","No","Open","Pre-K","5","652","School is eligible for Title I Schoolwide program (SWP) but provides no program","Yes","Yes","No","No","No","Yes participating without using any Provision or the CEP","44","01826","920-304","Cary","27511","35.776913","-78.762189","Suburb, large","3704","37011","37016","265","42","307",""
"2018","370465001993","AdVance Academy","NC","Vance County Schools","High","Other/alternative school","No","Open","6","12","136","School is eligible for Title I Schoolwide program (SWP) but provides no program","Yes","Yes","No","No","No","Yes participating without using any Provision or the CEP","9","01993","910-368","Henderson","27536","36.327653","-78.399392","Town, distant","3701","37032","37003","133","0","133",""
"2018","370231003432","Agriculture and Science Early College","NC","Iredell-Statesville Schools","High","Regular school","No","Open","9","12","153","School is eligible for Title I Targeted Assistance (TAS) but provides no program","Yes","No","No","No","Supplemental virtual","Yes participating without using any Provision or the CEP","5","03432","490-307","Olin","28660","35.930408","-80.867739","Rural, distant","3713","37084","37034","34","9","43",""
"2018","370216000931","Ahoskie Elementary","NC","Hertford County Schools","Primary","Regular school","No","Open","4","5","296","School is eligible for Title I Schoolwide program (SWP) and provides Title I Schoolwide program","Yes","Yes","No","No","No","Yes participating without using any Provision or the CEP","19","00931","460-308","Ahoskie","27910","36.291567","-76.994838","Town, distant","3701","37005","37001","293","0","293",""
"2018","370192000814","Alamance Elementary","NC","Guilford County Schools","Primary","Regular school","No","Open","Pre-K","5","525","School is not eligible for either Title I Targeted Assistance or Schoolwide program","No","No","No","No","No","Yes participating without using any Provision or the CEP","32","00814","410-304","Greensboro","27406","36.017732","-79.708593","Suburb, large","3713","37059","37027","166","29","195",""
"2018","370432000022","Albemarle High","NC","Stanly County Schools","High","Regular school","No","Open","9","12","410","School is eligible for Title I Schoolwide program (SWP) but provides no program","Yes","Yes","No","No","Supplemental virtual","Yes participating without using any Provision or the CEP","29","00022","840-302","Albemarle","28001","35.371228","-80.193145","Town, distant","3708","37067","37033","246","22","268",""
"2018","370432000023","Albemarle Middle","NC","Stanly County Schools","Middle","Regular school","No","Open","6","8","369","School is eligible for Title I Schoolwide program (SWP) and provides Title I Schoolwide program","Yes","Yes","No","No","No","Yes participating without using any Provision or the CEP","30","00023","840-303","Albemarle","28001","35.353696","-80.168373","Town, distant","3708","37067","37033","362","0","362",""
"2018","370297001186","Albemarle Road Elementary","NC","Charlotte-Mecklenburg Schools","Primary","Regular school","No","Open","Kindergarten","5","885","School is eligible for Title I Schoolwide program (SWP) and provides Title I Schoolwide program","Yes","Yes","No","No","No","Yes participating without using any Provision or the CEP","62","01186","600-300","Charlotte","28212","35.197057","-80.729512","City, large","3712","37100","37040","880","1","881",""
"2018","370297001187","Albemarle Road Middle","NC","Charlotte-Mecklenburg Schools","Middle","Regular school","No","Open","6","8","1154","School is eligible for Title I Schoolwide program (SWP) and provides Title I Schoolwide program","Yes","Yes","Yes","No","No","Yes participating without using any Provision or the CEP","68","01187","600-301","Charlotte","28212","35.198649","-80.729013","City, large","3712","37100","37040","1144","0","1144",""
"2018","370331000380","Albert H Bangert Elementary","NC","Craven County Schools","Primary","Regular school","No","Open","Kindergarten","5","440","School is eligible for Title I Schoolwide program (SWP) and provides Title I Schoolwide program","Yes","Yes","No","No","No","Yes participating without using any Provision or the CEP","30","00380","250-304","New Bern","28562","35.083175","-77.083419","Suburb, small","3703","37003","37002","215","14","229",""
"2018","370001100414","Alderman Road Elementary","NC","Cumberland County Schools","Primary","Regular school","No","Open","Pre-K","5","700","School is eligible for Title I Schoolwide program (SWP) and provides Title I Schoolwide program","Yes","Yes","No","No","No","Yes participating without using any Provision or the CEP","50","00414","260-364","Fayetteville","28306","34.895249","-78.860336","Rural, fringe","3709","37045","37019","697","0","697",""
"2018","370009000028","Alexander Central High","NC","Alexander County Schools","High","Regular school","No","Open","9","12","1219","School is eligible for Title I Schoolwide program (SWP) but provides no program","Yes","Yes","No","No","No","Yes participating without using any Provision or the CEP","86","00028","020-302","Taylorsville","28681","35.917038","-81.188851","Town, fringe","3705","37094","37042","397","62","459",""
"2018","370009003396","Alexander Early College","NC","Alexander County Schools","Secondary","Regular school","No","Open","9","11","195","School is eligible for Title I Schoolwide program (SWP) but provides no program","Yes","Yes","No","No","No","Yes participating without using any Provision or the CEP","7","03396","020-303","Taylorsville","28681","35.91017","-81.180208","Town, fringe","3705","37094","37042","40","12","52",""
"2018","370297001188","Alexander Graham Middle","NC","Charlotte-Mecklenburg Schools","Middle","Regular school","No","Open","6","8","1420","School is not eligible for either Title I Targeted Assistance or Schoolwide program","No","No","No","No","No","Yes participating without using any Provision or the CEP","77","01188","600-399","Charlotte","28211","35.1667","-80.832716","City, large","3709","37104","37039","365","22","387",""
"2018","370003000001","Alexander Wilson Elementary","NC","Alamance-Burlington Schools","Primary","Regular school","No","Open","Pre-K","5","626","School is eligible for Title I Schoolwide program (SWP) but provides no program","Yes","Yes","No","No","No","Yes participating without using any Provision or the CEP","38","00001","010-304","Graham","27253","36.029729","-79.346699","Suburb, midsize","3706","37063","37024","251","57","308",""
"2018","370001102981","Alger B. Wilkins High School","NC","Cumberland County Schools","High","Other/alternative school","No","Open","9","12","139","School is eligible for Title I Schoolwide program (SWP) but provides no program","Yes","Yes","No","No","No","Yes participating without using any Provision or the CEP","8","02981","260-374","Fayetteville","28303","35.083313","-78.951917","City, midsize","3708","37044","37019","136","0","136",""
"2018","370012000037","Alleghany High","NC","Alleghany County Schools","High","Regular school","No","Open","9","12","434","School is eligible for Title I Schoolwide program (SWP) but provides no program","Yes","Yes","No","No","No","Yes participating without using any Provision or the CEP","36","00037","030-304","Sparta","28675","36.509866","-81.125428","Rural, remote","3705","37090","37045","167","33","200",""
"2018","370192000817","Allen Jay Elementary","NC","Guilford County Schools","Primary","Regular school","No","Open","Pre-K","5","474","School is eligible for Title I Schoolwide program (SWP) and provides Title I Schoolwide program","Yes","Yes","No","No","No","Yes participating without using any Provision or the CEP","33","00817","410-310","High Point","27263","35.93227","-79.955605","City, midsize","3713","37059","37027","467","0","467",""
"2018","370192003295","Allen Jay Middle - A Preparatory Academy","NC","Guilford County Schools","Middle","Regular school","No","Open","5","8","407","School is not eligible for either Title I Targeted Assistance or Schoolwide program","No","No","Yes","No","No","Yes participating without using any Provision or the CEP","24","03295","410-311","High Point","27263","35.924581","-79.960719","City, midsize","3713","37060","37026","404","0","404",""
"2018","370192000757","Allen Middle","NC","Guilford County Schools","Middle","Regular school","No","Open","6","8","742","School is eligible for Title I Schoolwide program (SWP) and provides Title I Schoolwide program","Yes","Yes","No","No","No","Yes participating without using any Provision or the CEP","42","00757","410-316","Greensboro","27406","36.010948","-79.824132","City, large","3713","37058","37028","739","0","739",""
"2018","370297001190","Allenbrook Elementary","NC","Charlotte-Mecklenburg Schools","Primary","Regular school","No","Open","Pre-K","5","282","School is eligible for Title I Schoolwide program (SWP) and provides Title I Schoolwide program","Yes","Yes","No","No","No","Yes participating without using any Provision or the CEP","21","01190","600-308","Charlotte","28208","35.261753","-80.91503","City, large","3712","37101","37038","279","0","279",""
"2018","370001102119","Alma O Easom Elementary","NC","Cumberland County Schools","Primary","Regular school","No","Open","Kindergarten","1","296","School is eligible for Title I Schoolwide program (SWP) and provides Title I Schoolwide program","Yes","Yes","No","No","No","Yes participating without using any Provision or the CEP","19","02119","260-302","Fayetteville","28305","35.060844","-78.908476","City, midsize","3708","37044","37019","116","11","127",""
"2018","370472003214","Alston Ridge Elementary","NC","Wake County Schools","Primary","Regular school","No","Open","Pre-K","5","1066","School is not eligible for either Title I Targeted Assistance or Schoolwide program","No","No","No","No","No","Yes participating without using any Provision or the CEP","66","03214","920-307","Cary","27519","35.859628","-78.899076","Rural, fringe","3704","37041","37016","80","29","109",""
"2018","370472003491","Alston Ridge Middle","NC","Wake County Schools","Missing/not reported","Regular school","No","Future","","","","","","","","","","","","03491","920-309","Cary","27519","35.85397","-78.905251","Rural, fringe","3704","37041","37016","","","",""
"2018","370003000002","Altamahaw-Ossipee Elementary","NC","Alamance-Burlington Schools","Primary","Regular school","No","Open","Kindergarten","5","622","School is eligible for Title I Schoolwide program (SWP) but provides no program","Yes","Yes","No","No","No","Yes participating without using any Provision or the CEP","35","00002","010-308","Elon","27244","36.179578","-79.510506","Rural, fringe","3706","37064","37024","241","39","280",""
"2018","370201000874","Anderson Creek Primary","NC","Harnett County Schools","Primary","Regular school","No","Open","Pre-K","2","598","School is eligible for Title I Schoolwide program (SWP) and provides Title I Schoolwide program","Yes","Yes","No","No","No","Yes participating without using any Provision or the CEP","39","00874","430-304","Bunnlevel","28323","35.281828","-78.917207","Rural, fringe","3702","37053","37012","275","57","332",""
"2018","370078000317","Andrews Elementary","NC","Cherokee County Schools","Primary","Regular school","No","Open","Pre-K","4","349","School is eligible for Title I Schoolwide program (SWP) and provides Title I Schoolwide program","Yes","Yes","No","No","No","Yes participating without using any Provision or the CEP","29","00317","200-304","Andrews","28901","35.198317","-83.825311","Rural, remote","3711","37120","37050","346","0","346",""
"2018","370078000318","Andrews High","NC","Cherokee County Schools","High","Regular school","No","Open","9","12","210","School is eligible for Title I Schoolwide program (SWP) but provides no program","Yes","Yes","No","No","Supplemental virtual","Yes participating without using any Provision or the CEP","19","00318","200-308","Andrews","28901","35.195361","-83.824395","Rural, remote","3711","37120","37050","98","24","122",""
"2018","370078001820","Andrews Middle","NC","Cherokee County Schools","Middle","Regular school","No","Open","5","8","252","School is eligible for Title I Schoolwide program (SWP) but provides no program","Yes","Yes","No","No","No","Yes participating without using any Provision or the CEP","16","01820","200-310","Andrews","28901","35.194885","-83.797688","Rural, remote","3711","37120","37050","134","31","165",""
"2018","370201000875","Angier Elementary","NC","Harnett County Schools","Primary","Regular school","No","Open","3","5","464","School is eligible for Title I Schoolwide program (SWP) and provides Title I Schoolwide program","Yes","Yes","No","No","No","Yes participating without using any Provision or the CEP","29","00875","430-308","Angier","27501","35.502905","-78.736291","Suburb, large","3702","37028","37012","306","32","338",""
"2018","370001100406","Anne Chesnutt Middle","NC","Cumberland County Schools","Middle","Regular school","No","Open","6","8","454","School is eligible for Title I Schoolwide program (SWP) but provides no program","Yes","Yes","No","No","No","Yes participating without using any Provision or the CEP","33","00406","260-336","Fayetteville","28314","35.050897","-78.973099","City, midsize","3708","37044","37019","451","0","451",""
"2018","370018002367","Anson Academy","NC","Anson County Schools","High","Other/alternative school","No","Open","7","12","47","School is eligible for Title I Schoolwide program (SWP) but provides no program","Yes","Yes","No","No","No","Yes participating without using any Provision or the CEP","4","02367","040-305","Wadesboro","28170","34.961473","-80.079635","Town, distant","3709","37055","37025","44","0","44",""
"2018","370018002748","Anson Co. Early College High","NC","Anson County Schools","High","Regular school","No","Open","9","13","233","School is eligible for Title I Schoolwide program (SWP) but provides no program","Yes","Yes","No","No","No","Yes participating without using any Provision or the CEP","11","02748","040-304","Polkton","28135","34.9997","-80.210481","Rural, distant","3709","37055","37025","230","0","230",""
"2018","370018002054","Anson High School","NC","Anson County Schools","High","Regular school","No","Open","9","12","708","School is eligible for Title I Schoolwide program (SWP) but provides no program","Yes","Yes","No","No","No","Yes participating without using any Provision or the CEP","50","02054","040-306","Wadesboro","28170","34.977437","-80.102843","Town, distant","3709","37055","37025","704","0","704",""
"2018","370018002056","Anson Middle","NC","Anson County Schools","Middle","Regular school","No","Open","6","8","685","School is eligible for Title I Schoolwide program (SWP) but provides no program","Yes","Yes","No","No","No","Yes participating without using any Provision or the CEP","39","02056","040-309","Wadesboro","28170","34.98923","-80.08939","Rural, fringe","3709","37055","37025","682","0","682",""
"2018","370018000042","Ansonville Elementary","NC","Anson County Schools","Primary","Regular school","No","Open","Kindergarten","5","172","School is eligible for Title I Schoolwide program (SWP) and provides Title I Schoolwide program","Yes","Yes","No","No","No","Yes participating without using any Provision or the CEP","13","00042","040-308","Ansonville","28007","35.105375","-80.106437","Rural, distant","3709","37055","37025","169","0","169",""
"2018","370462002740","Antioch Elementary","NC","Union County Public Schools","Primary","Regular school","No","Open","Kindergarten","5","770","School is not eligible for either Title I Targeted Assistance or Schoolwide program","No","No","No","No","No","Yes participating without using any Provision or the CEP","47","02740","900-302","Matthews","28104","35.05881","-80.722757","Suburb, large","3709","37069","37035","47","10","57",""
"2018","370472001827","Apex Elementary","NC","Wake County Schools","Primary","Regular school","No","Open","Pre-K","5","635","School is not eligible for either Title I Targeted Assistance or Schoolwide program","No","No","No","No","No","Yes participating without using any Provision or the CEP","39","01827","920-308","Apex","27502","35.721048","-78.856964","Suburb, large","3702","37041","37017","148","21","169",""
"2018","370472003351","Apex Friendship High","NC","Wake County Schools","High","Regular school","No","Open","9","12","2508","School is not eligible for either Title I Targeted Assistance or Schoolwide program","No","No","No","No","No","Yes participating without using any Provision or the CEP","124","03351","920-317","Apex","27502","35.7003","-78.910731","Rural, fringe","3702","37037","37017","161","41","202",""
"2018","370472003470","Apex Friendship Middle","NC","Wake County Schools","Middle","Regular school","No","New","6","8","866","School is not eligible for either Title I Targeted Assistance or Schoolwide program","No","No","No","No","No","Yes participating without using any Provision or the CEP","46","03470","920-315","Apex","27502","35.7003","-78.910731","Rural, fringe","3702","37037","37017","90","25","115",""
"2018","370472001829","Apex High","NC","Wake County Schools","High","Regular school","No","Open","9","12","2100","School is not eligible for either Title I Targeted Assistance or Schoolwide program","No","No","No","No","No","Yes participating without using any Provision or the CEP","107","01829","920-316","Cary","27519","35.772718","-78.899888","Rural, fringe","3704","37041","37016","252","48","300",""
"2018","370472001828","Apex Middle","NC","Wake County Schools","Middle","Regular school","No","Open","6","8","1032","School is not eligible for either Title I Targeted Assistance or Schoolwide program","No","No","No","No","No","Yes participating without using any Provision or the CEP","56","01828","920-312","Apex","27502","35.725968","-78.848374","Suburb, large","3704","37037","37017","163","30","193",""
"2018","370042703457","Appalachian Academy at Middle Fork","NC","Appalachian State U Academy Middle Fork","Primary","Regular school","No","New","Kindergarten","5","283","School is eligible for Title I Schoolwide program (SWP) and provides Title I Schoolwide program","Yes","Yes","No","No","No","Yes participating without using any Provision or the CEP","13","03457","34Z-000","Walkertown","27051","36.14139","-80.168251","Suburb, large","3705","37074","37032","279","0","279",""
"2018","370210000797","Apple Valley Middle","NC","Henderson County Schools","Middle","Regular school","No","Open","6","8","906","School is eligible for Title I Schoolwide program (SWP) but provides no program","Yes","Yes","No","No","Supplemental virtual","Yes participating without using any Provision or the CEP","57","00797","450-301","Hendersonville","28792","35.361923","-82.421889","Suburb, large","3711","37117","37048","509","91","600",""
"2018","370432001707","Aquadale Elementary","NC","Stanly County Schools","Primary","Regular school","No","Open","Pre-K","5","321","School is eligible for Title I Schoolwide program (SWP) and provides Title I Schoolwide program","Yes","Yes","No","No","No","Yes participating without using any Provision or the CEP","22","01707","840-304","Norwood","28128","35.229035","-80.223633","Rural, distant","3708","37067","37033","136","17","153",""
"2018","370378001514","Archdale Elementary","NC","Randolph County School System","Primary","Regular school","No","Open","Kindergarten","5","366","School is eligible for Title I Schoolwide program (SWP) and provides Title I Schoolwide program","Yes","Yes","No","No","No","Yes participating without using any Provision or the CEP","25","01514","760-304","Archdale","27263","35.912607","-79.975114","Suburb, midsize","3706","37070","37026","195","23","218",""
"2018","370378001515","Archdale-Trinity Middle","NC","Randolph County School System","Middle","Regular school","No","Open","7","8","683","School is eligible for Title I Schoolwide program (SWP) but provides no program","Yes","Yes","No","No","Supplemental virtual","Yes participating without using any Provision or the CEP","42","01515","760-378","Trinity","27370","35.886204","-79.954065","Suburb, midsize","3706","37070","37026","269","44","313",""
"2018","370192000758","Archer Elementary","NC","Guilford County Schools","Primary","Regular school","No","Open","Pre-K","5","427","School is eligible for Title I Schoolwide program (SWP) and provides Title I Schoolwide program","Yes","Yes","No","No","No","Yes participating without using any Provision or the CEP","26","00758","410-322","Greensboro","27407","36.030729","-79.83049","City, large","3713","37058","37028","424","0","424",""
"2018","370237002998","Archer Lodge Middle","NC","Johnston County Public Schools","Middle","Regular school","No","Open","6","8","1180","School is not eligible for either Title I Targeted Assistance or Schoolwide program","No","No","No","No","No","Yes participating without using any Provision or the CEP","62","02998","510-364","Wendell","27591","35.703203","-78.366081","Town, fringe","3702","37026","37011","307","32","339",""
"2018","370297002910","Ardrey Kell High","NC","Charlotte-Mecklenburg Schools","High","Regular school","No","Open","9","12","3315","School is not eligible for either Title I Targeted Assistance or Schoolwide program","No","No","No","No","No","Yes participating without using any Provision or the CEP","157","02910","600-302","Charlotte","28277","35.02999","-80.82665","City, large","3712","37105","37041","245","58","303",""
"2018","370001102085","Armstrong Elementary","NC","Cumberland County Schools","Primary","Regular school","No","Open","Pre-K","5","439","School is eligible for Title I Schoolwide program (SWP) and provides Title I Schoolwide program","Yes","Yes","No","No","No","Yes participating without using any Provision or the CEP","38","02085","260-306","Eastover","28312","35.091539","-78.790439","Rural, fringe","3709","37045","37019","430","0","430",""
"2018","370331002181","Arthur W Edwards Elementary","NC","Craven County Schools","Primary","Regular school","No","Open","Kindergarten","5","625","School is eligible for Title I Schoolwide program (SWP) and provides Title I Schoolwide program","Yes","Yes","No","No","No","Yes participating without using any Provision or the CEP","40","02181","250-380","Havelock","28532","34.910134","-76.928136","Town, fringe","3703","37003","37002","217","103","320",""
"2018","370268002392","Asbury Academy","NC","Lincoln County Schools","High","Other/alternative school","No","Open","6","12","52","School is eligible for Title I Schoolwide program (SWP) but provides no program","Yes","Yes","No","No","Supplemental virtual","Yes participating without using any Provision or the CEP","7","02392","550-308","Lincolnton","28092","35.478229","-81.207864","Town, fringe","3710","37097","37044","38","3","41",""
"2018","370162000663","Ashbrook High","NC","Gaston County Schools","High","Regular school","No","Open","9","12","1285","School is eligible for Title I Schoolwide program (SWP) but provides no program","Yes","Yes","No","No","No","Yes participating without using any Provision or the CEP","80","00663","360-310","Gastonia","28054","35.243106","-81.127153","City, small","3710","37108","37043","658","96","754",""
"2018","370021003474","Ashe County Early College High","NC","Ashe County Schools","Secondary","Regular school","No","New","9","10","60","School is eligible for Title I Schoolwide program (SWP) but provides no program","Yes","Yes","No","No","No","Yes participating without using any Provision or the CEP","3","03474","050-303","West Jefferson","28694","36.394244","-81.476089","Rural, fringe","3705","37093","37045","18","4","22",""
"2018","370021002425","Ashe County High","NC","Ashe County Schools","High","Regular school","No","Open","9","12","875","School is eligible for Title I Schoolwide program (SWP) but provides no program","Yes","Yes","No","No","Supplemental virtual","Yes participating without using any Provision or the CEP","57","02425","050-302","West Jefferson","28694","36.392489","-81.479046","Rural, fringe","3705","37093","37045","355","81","436",""
"2018","370021002426","Ashe County Middle","NC","Ashe County Schools","Middle","Regular school","No","Open","7","8","473","School is eligible for Title I Schoolwide program (SWP) but provides no program","Yes","Yes","No","No","No","Yes participating without using any Provision or the CEP","34","02426","050-305","Warrensville","28693","36.464298","-81.510124","Rural, fringe","3705","37093","37045","215","43","258",""
"2018","370024000062","Asheboro High","NC","Asheboro City Schools","High","Regular school","No","Open","9","12","1300","School is eligible for Title I Schoolwide program (SWP) but provides no program","Yes","Yes","No","No","Supplemental virtual","Yes participating without using any Provision or the CEP","79","00062","761-304","Asheboro","27203","35.68929","-79.81842","Town, fringe","3706","37070","37026","726","108","834",""
"2018","370027000070","Asheville High","NC","Asheville City Schools","High","Regular school","No","Open","9","12","994","School is not eligible for either Title I Targeted Assistance or Schoolwide program","No","No","No","No","Supplemental virtual","Yes participating without using any Provision or the CEP","82","00070","111-302","Asheville","28803","35.572901","-82.553099","City, small","3710","37114","37049","232","26","258",""
"2018","370027000079","Asheville Middle","NC","Asheville City Schools","Middle","Regular school","No","Open","6","8","741","School is eligible for Title I Targeted Assistance (TAS) but provides no program","Yes","No","No","No","Supplemental virtual","Yes participating without using any Provision or the CEP","60","00079","111-356","Asheville","28801","35.586731","-82.560101","City, small","3710","37114","37049","257","26","283",""
"2018","370027003436","Asheville Primary","NC","Asheville City Schools","Primary","Regular school","No","Open","Pre-K","3","160","School is eligible for Title I Schoolwide program (SWP) and provides Title I Schoolwide program","Yes","Yes","Yes","No","No","Yes participating without using any Provision or the CEP","9","03436","111-307","Asheville","28806","35.578284","-82.581575","City, small","3710","37114","37049","76","5","81",""
"2018","370150002446","Ashley Academy","NC","Winston Salem / Forsyth County Schools","Primary","Regular school","No","Open","Pre-K","5","427","School is eligible for Title I Schoolwide program (SWP) and provides Title I Schoolwide program","Yes","Yes","Yes","No","No","Yes participating without using any Provision or the CEP","33","02446","340-308","Winston-Salem","27105","36.117726","-80.221743","City, midsize","3705","37072","37032","424","0","424",""
"2018","370387000788","Ashley Chapel Educational Center","NC","Richmond County Schools","High","Other/alternative school","No","Open","7","12","66","School is eligible for Title I Schoolwide program (SWP) and provides Title I Schoolwide program","Yes","Yes","No","No","No","Yes participating without using any Provision or the CEP","8","00788","770-342","Rockingham","28379","34.897049","-79.784233","Rural, fringe","3709","37066","37025","63","0","63",""
"2018","370001100394","Ashley Elementary","NC","Cumberland County Schools","Primary","Regular school","No","Open","3","5","200","School is eligible for Title I Schoolwide program (SWP) and provides Title I Schoolwide program","Yes","Yes","No","No","No","Yes participating without using any Provision or the CEP","15","00394","260-308","Fayetteville","28304","35.038654","-78.906834","City, midsize","3708","37044","37019","197","0","197",""
"2018","370297001192","Ashley Park PreK-8 School","NC","Charlotte-Mecklenburg Schools","Primary","Regular school","No","Open","Pre-K","8","528","School is eligible for Title I Schoolwide program (SWP) and provides Title I Schoolwide program","Yes","Yes","No","No","No","Yes participating without using any Provision or the CEP","43","01192","600-311","Charlotte","28208","35.232655","-80.890678","City, large","3712","37088","37037","520","0","520",""
"2018","370472001830","Athens Drive High","NC","Wake County Schools","High","Regular school","No","Open","9","12","2090","School is eligible for Title I Schoolwide program (SWP) but provides no program","Yes","Yes","Yes","No","No","Yes participating without using any Provision or the CEP","126","01830","920-318","Raleigh","27606","35.7687","-78.711273","City, large","3704","37011","37015","713","99","812",""
"2018","370150003176","Atkins Academic & Tech High","NC","Winston Salem / Forsyth County Schools","High","Regular school","No","Open","9","12","1019","School is not eligible for either Title I Targeted Assistance or Schoolwide program","No","No","Yes","No","No","Yes participating without using any Provision or the CEP","61","03176","340-311","Winston-Salem","27101","36.110167","-80.195387","City, midsize","3705","37074","37032","207","46","253",""
"2018","370210002094","Atkinson Elementary","NC","Henderson County Schools","Primary","Regular school","No","Open","Kindergarten","5","343","School is eligible for Title I Schoolwide program (SWP) and provides Title I Schoolwide program","Yes","Yes","No","No","No","Yes participating without using any Provision or the CEP","23","02094","450-302","Hendersonville","28739","35.283964","-82.492667","Rural, fringe","3711","37113","37048","123","30","153",""
"2018","370063000249","Atlantic Elementary","NC","Carteret County Public Schools","Primary","Regular school","No","Open","Pre-K","5","86","School is eligible for Title I Schoolwide program (SWP) and provides Title I Schoolwide program","Yes","Yes","No","No","No","Yes participating without using any Provision or the CEP","9","00249","160-304","Atlantic","28511","34.883128","-76.342431","Rural, remote","3703","37013","37002","63","3","66",""
"2018","370003002501","Audrey W. Garrett Elementary","NC","Alamance-Burlington Schools","Primary","Regular school","No","Open","Pre-K","5","625","School is eligible for Title I Schoolwide program (SWP) and provides Title I Schoolwide program","Yes","Yes","No","No","No","Yes participating without using any Provision or the CEP","43","02501","010-347","Mebane","27302","36.061554","-79.297392","Suburb, midsize","3706","37063","37024","285","51","336",""
"2018","370036000104","Aulander Elementary","NC","Bertie County Schools","Primary","Regular school","No","Open","Pre-K","5","142","School is eligible for Title I Schoolwide program (SWP) and provides Title I Schoolwide program","Yes","Yes","No","No","No","Yes participating without using any Provision or the CEP","7","00104","080-348","Aulander","27805","36.214439","-77.106098","Rural, distant","3701","37001","37003","139","0","139",""
"2018","370195000856","Aurelian Springs Institute of Global Lea","NC","Halifax County Schools","Primary","Regular school","No","Open","Pre-K","5","239","School is eligible for Title I Schoolwide program (SWP) and provides Title I Schoolwide program","Yes","Yes","No","No","No","Yes participating without using any Provision or the CEP","20","00856","420-304","Littleton","27850","36.363855","-77.808314","Rural, distant","3701","37027","37004","236","0","236",""
"2018","370472001831","Aversboro Elementary","NC","Wake County Schools","Primary","Regular school","No","Open","Pre-K","5","480","School is eligible for Title I Schoolwide program (SWP) and provides Title I Schoolwide program","Yes","Yes","No","No","No","Yes participating without using any Provision or the CEP","34","01831","920-320","Garner","27529","35.688764","-78.616158","Suburb, large","3704","37033","37015","245","48","293",""
"2018","370030000081","Avery County High","NC","Avery County Schools","High","Regular school","No","Open","9","12","430","School is eligible for Title I Schoolwide program (SWP) but provides no program","Yes","Yes","No","No","No","Yes participating without using any Provision or the CEP","21","00081","060-302","Newland","28657","36.067608","-81.919724","Rural, distant","3705","37085","37046","161","39","200",""
"2018","370030003229","Avery High STEM Academy","NC","Avery County Schools","High","Regular school","No","Open","9","12","85","School is not eligible for either Title I Targeted Assistance or Schoolwide program","No","No","No","No","No","Yes participating without using any Provision or the CEP","9","03229","060-700","Newland","28657","36.067608","-81.919724","Rural, distant","3705","37085","37046","16","6","22",""
"2018","370030003230","Avery High Viking Academy","NC","Avery County Schools","Secondary","Regular school","No","Open","9","9","52","School is eligible for Title I Schoolwide program (SWP) but provides no program","Yes","Yes","No","No","No","Yes participating without using any Provision or the CEP","4","03230","060-701","Newland","28657","36.067608","-81.919724","Rural, distant","3705","37085","37046","27","5","32",""
"2018","370030000085","Avery Middle","NC","Avery County Schools","Middle","Regular school","No","Open","6","8","262","School is eligible for Title I Schoolwide program (SWP) and provides Title I Schoolwide program","Yes","Yes","No","No","No","Yes participating without using any Provision or the CEP","23","00085","060-318","Newland","28657","36.067352","-81.91638","Rural, distant","3705","37085","37046","125","26","151",""
"2018","370045001781","Averys Creek Elementary","NC","Buncombe County Schools","Primary","Regular school","No","Open","Kindergarten","4","546","School is eligible for Title I Schoolwide program (SWP) and provides Title I Schoolwide program","Yes","Yes","No","No","No","Yes participating without using any Provision or the CEP","40","01781","110-410","Arden","28704","35.477638","-82.579194","Suburb, large","3711","37116","37048","295","44","339",""
"2018","370465001812","Aycock Elementary","NC","Vance County Schools","Primary","Regular school","No","Open","Pre-K","5","463","School is eligible for Title I Schoolwide program (SWP) and provides Title I Schoolwide program","Yes","Yes","No","No","No","Yes participating without using any Provision or the CEP","30","01812","910-304","Henderson","27537","36.321054","-78.361301","Rural, fringe","3701","37032","37003","460","0","460",""
"2018","370001201489","Ayden Elementary","NC","Pitt County Schools","Primary","Regular school","No","Open","Pre-K","5","686","School is eligible for Title I Schoolwide program (SWP) and provides Title I Schoolwide program","Yes","Yes","No","No","No","Yes participating without using any Provision or the CEP","45","01489","740-304","Ayden","28513","35.475525","-77.43215","Suburb, midsize","3703","37012","37005","431","21","452",""
"2018","370001201490","Ayden Middle","NC","Pitt County Schools","Middle","Regular school","No","Open","6","8","382","School is eligible for Title I Schoolwide program (SWP) and provides Title I Schoolwide program","Yes","Yes","No","No","No","Yes participating without using any Provision or the CEP","22","01490","740-308","Ayden","28513","35.471428","-77.434473","Suburb, midsize","3703","37012","37005","213","5","218",""
"2018","370001201491","Ayden-Grifton High","NC","Pitt County Schools","High","Regular school","No","Open","9","12","657","School is eligible for Title I Schoolwide program (SWP) but provides no program","Yes","Yes","No","No","Supplemental virtual","Yes participating without using any Provision or the CEP","44","01491","740-309","Ayden","28513","35.430252","-77.431952","Rural, fringe","3703","37012","37005","382","21","403",""
"2018","370033001360","B C Ed Tech Center","NC","Beaufort County Schools","High","Other/alternative school","No","Open","6","12","70","School is eligible for Title I Schoolwide program (SWP) but provides no program","Yes","Yes","No","No","No","Yes participating without using any Provision or the CEP","6","01360","070-310","Washington","27899","35.544207","-77.048716","Town, distant","3703","37079","37003","67","0","67",""
"2018","370120000492","B F Grady Elementary","NC","Duplin County Schools","Primary","Regular school","No","Open","Pre-K","8","904","School is eligible for Title I Schoolwide program (SWP) and provides Title I Schoolwide program","Yes","Yes","No","No","No","Yes participating without using any Provision or the CEP","58","00492","310-304","Albertson","28508","35.057186","-77.828759","Rural, distant","3707","37004","37010","901","0","901",""
"2018","370502001992","B O Barnes Elementary","NC","Wilson County Schools","Primary","Regular school","No","Open","Kindergarten","5","363","School is eligible for Title I Schoolwide program (SWP) and provides Title I Schoolwide program","Yes","Yes","No","No","No","Yes participating without using any Provision or the CEP","22","01992","980-308","Wilson","27893","35.713303","-77.88642","Town, fringe","3701","37024","37004","360","0","360",""
"2018","370039000109","B T Washington Primary","NC","Bladen County Schools","Missing/not reported","Regular school","No","Closed","","","","","","","","","","","","00109","090-304","Clarkton","28433","34.500834","-78.667323","Rural, distant","3709","37022","37008","","","",""
"2018","370003000003","B. Everett Jordan Elementary","NC","Alamance-Burlington Schools","Primary","Regular school","No","Open","Kindergarten","5","373","School is eligible for Title I Schoolwide program (SWP) and provides Title I Schoolwide program","Yes","Yes","No","No","No","Yes participating without using any Provision or the CEP","25","00003","010-346","Graham","27253","35.939759","-79.32679","Rural, distant","3706","37064","37024","189","29","218",""
"2018","370432001708","Badin Elementary","NC","Stanly County Schools","Primary","Regular school","No","Open","Kindergarten","5","515","School is eligible for Title I Schoolwide program (SWP) and provides Title I Schoolwide program","Yes","Yes","No","No","No","Yes participating without using any Provision or the CEP","30","01708","840-308","Badin","28009","35.402085","-80.114785","Rural, distant","3708","37066","37033","236","32","268",""
"2018","370327001341","Bailey Elementary","NC","Nash-Rocky Mount Schools","Primary","Regular school","No","Open","Pre-K","5","609","School is eligible for Title I Schoolwide program (SWP) and provides Title I Schoolwide program","Yes","Yes","No","No","No","Yes participating without using any Provision or the CEP","40","01341","640-304","Bailey","27807","35.781987","-78.115357","Rural, distant","3702","37007","37011","597","0","597",""
"2018","370297002870","Bailey Middle","NC","Charlotte-Mecklenburg Schools","Middle","Regular school","No","Open","6","8","1702","School is not eligible for either Title I Targeted Assistance or Schoolwide program","No","No","No","No","No","Yes participating without using any Provision or the CEP","86","02870","600-313","Cornelius","28031","35.467451","-80.837951","Rural, fringe","3712","37098","37041","244","31","275",""
"2018","370472002006","Baileywick Road Elementary","NC","Wake County Schools","Primary","Regular school","No","Open","Pre-K","5","405","School is eligible for Title I Schoolwide program (SWP) and provides Title I Schoolwide program","Yes","Yes","No","No","No","Yes participating without using any Provision or the CEP","35","02006","920-326","Raleigh","27615","35.909412","-78.66499","City, large","3702","37040","37018","207","13","220",""
"2018","370297001193","Bain Elementary","NC","Charlotte-Mecklenburg Schools","Primary","Regular school","No","Open","Kindergarten","5","940","School is not eligible for either Title I Targeted Assistance or Schoolwide program","No","No","No","No","No","Yes participating without using any Provision or the CEP","52","01193","600-314","Charlotte","28227","35.17497","-80.648406","Suburb, large","3709","37103","37039","150","22","172",""
"2018","370507002023","Bald Creek Elementary","NC","Yancey County Schools","Primary","Regular school","No","Open","Pre-K","5","180","School is eligible for Title I Schoolwide program (SWP) and provides Title I Schoolwide program","Yes","Yes","No","No","No","Yes participating without using any Provision or the CEP","12","02023","995-304","Burnsville","28714","35.91286","-82.423632","Rural, distant","3711","37118","37047","92","11","103",""
"2018","370024000064","Balfour Elementary","NC","Asheboro City Schools","Primary","Regular school","No","Open","Pre-K","5","517","School is eligible for Title I Schoolwide program (SWP) and provides Title I Schoolwide program","Yes","Yes","No","No","No","Yes participating without using any Provision or the CEP","41","00064","761-312","Asheboro","27203","35.745604","-79.821745","Town, fringe","3706","37070","37026","377","66","443",""
"2018","370297003026","Ballantyne Elementary","NC","Charlotte-Mecklenburg Schools","Primary","Regular school","No","Open","Kindergarten","5","879","School is not eligible for either Title I Targeted Assistance or Schoolwide program","No","No","No","No","No","Yes participating without using any Provision or the CEP","46","03026","600-437","Charlotte","28277","35.037387","-80.856135","City, large","3712","37105","37041","94","18","112",""
"2018","370472002652","Ballentine Elementary","NC","Wake County Schools","Primary","Regular school","No","Open","Pre-K","5","649","School is not eligible for either Title I Targeted Assistance or Schoolwide program","No","No","No","No","No","Yes participating without using any Provision or the CEP","43","02652","920-327","Fuquay Varina","27526","35.613785","-78.770636","Suburb, large","3702","37037","37017","152","31","183",""
"2018","370069000273","Balls Creek Elementary","NC","Catawba County Schools","Primary","Regular school","No","Open","Pre-K","6","705","School is eligible for Title I Schoolwide program (SWP) and provides Title I Schoolwide program","Yes","Yes","No","No","No","Yes participating without using any Provision or the CEP","45","00273","180-304","Newton","28658","35.629772","-81.12787","Rural, fringe","3710","37089","37042","290","58","348",""
"2018","370069000274","Bandys High","NC","Catawba County Schools","High","Regular school","No","Open","9","12","847","School is not eligible for either Title I Targeted Assistance or Schoolwide program","No","No","No","No","No","Yes participating without using any Provision or the CEP","46","00274","180-308","Catawba","28609","35.645245","-81.08562","Rural, fringe","3710","37089","37042","207","53","260",""
"2018","370261001086","Banks Elementary","NC","Lenoir County Public Schools","Primary","Regular school","No","Open","Pre-K","5","542","School is eligible for Title I Schoolwide program (SWP) and provides Title I Schoolwide program","Yes","Yes","No","No","No","Yes participating without using any Provision or the CEP","35","01086","540-304","Kinston","28504","35.281598","-77.679538","Rural, fringe","3703","37012","37007","539","0","539",""
"2018","370472003132","Banks Road Elementary","NC","Wake County Schools","Primary","Regular school","No","Open","Pre-K","5","768","School is not eligible for either Title I Targeted Assistance or Schoolwide program","No","No","No","No","No","Yes participating without using any Provision or the CEP","50","03132","920-325","Raleigh","27603","35.631701","-78.709633","Rural, fringe","3702","37036","37017","225","41","266",""
"2018","370030000082","Banner Elk Elementary","NC","Avery County Schools","Primary","Regular school","No","Open","Pre-K","5","173","School is eligible for Title I Schoolwide program (SWP) and provides Title I Schoolwide program","Yes","Yes","No","No","No","Yes participating without using any Provision or the CEP","12","00082","060-304","Banner Elk","28604","36.148912","-81.857786","Rural, distant","3705","37085","37046","73","17","90",""
"2018","370069000275","Banoak Elementary","NC","Catawba County Schools","Primary","Regular school","No","Open","Kindergarten","6","310","School is eligible for Title I Schoolwide program (SWP) and provides Title I Schoolwide program","Yes","Yes","No","No","No","Yes participating without using any Provision or the CEP","21","00275","180-312","Vale","28168","35.582207","-81.416602","Rural, fringe","3710","37089","37042","154","27","181",""
"2018","370045001003","Barnardsville Elementary","NC","Buncombe County Schools","Primary","Regular school","No","Open","Kindergarten","4","164","School is eligible for Title I Schoolwide program (SWP) and provides Title I Schoolwide program","Yes","Yes","No","No","No","Yes participating without using any Provision or the CEP","14","01003","110-308","Barnardsville","28709","35.775309","-82.460009","Rural, fringe","3711","37115","37049","79","15","94",""
"2018","370297003023","Barnette Elementary","NC","Charlotte-Mecklenburg Schools","Primary","Regular school","No","Open","Pre-K","5","764","School is not eligible for either Title I Targeted Assistance or Schoolwide program","No","No","No","No","No","Yes participating without using any Provision or the CEP","43","03023","600-328","Huntersville","28078","35.399842","-80.92486","Rural, fringe","3712","37107","37041","133","28","161",""
"2018","370297001194","Barringer Academic Center","NC","Charlotte-Mecklenburg Schools","Primary","Regular school","No","Open","Kindergarten","5","510","School is eligible for Title I Schoolwide program (SWP) and provides Title I Schoolwide program","Yes","Yes","Yes","No","No","Yes participating without using any Provision or the CEP","37","01194","600-316","Charlotte","28208","35.210389","-80.888822","City, large","3712","37088","37037","507","0","507",""
"2018","370066000264","Bartlett Yancey High","NC","Caswell County Schools","High","Regular school","No","Open","9","12","765","School is eligible for Title I Schoolwide program (SWP) but provides no program","Yes","Yes","No","No","No","Yes participating without using any Provision or the CEP","49","00264","170-316","Yanceyville","27379","36.403284","-79.327297","Rural, distant","3706","37050","37030","375","41","416",""
"2018","370472002854","Barwell Road Elementary","NC","Wake County Schools","Primary","Regular school","No","Open","Pre-K","5","693","School is eligible for Title I Schoolwide program (SWP) and provides Title I Schoolwide program","Yes","Yes","No","No","No","Yes participating without using any Provision or the CEP","47","02854","920-329","Raleigh","27610","35.731973","-78.551376","City, large","3704","37033","37015","486","70","556",""
"2018","370327000703","Baskerville Elementary","NC","Nash-Rocky Mount Schools","Primary","Regular school","No","Open","Kindergarten","5","390","School is eligible for Title I Schoolwide program (SWP) and provides Title I Schoolwide program","Yes","Yes","No","No","No","Yes participating without using any Provision or the CEP","22","00703","640-306","Rocky Mount","27801","35.95029","-77.771555","City, small","3701","37023","37004","380","0","380",""
"2018","370033000091","Bath Elementary","NC","Beaufort County Schools","Primary","Regular school","No","Open","Kindergarten","8","576","School is eligible for Title I Schoolwide program (SWP) and provides Title I Schoolwide program","Yes","Yes","No","No","No","Yes participating without using any Provision or the CEP","38","00091","070-308","Bath","27808","35.475394","-76.810854","Rural, distant","3703","37079","37003","573","0","573",""
"2018","370058000221","Baton Elementary","NC","Caldwell County Schools","Primary","Regular school","No","Open","Pre-K","5","378","School is eligible for Title I Schoolwide program (SWP) and provides Title I Schoolwide program","Yes","Yes","No","No","No","Yes participating without using any Provision or the CEP","25","00221","140-304","Granite Falls","28630","35.808818","-81.536029","Rural, fringe","3711","37087","37046","190","30","220",""
"2018","370268001108","Battleground Elementary","NC","Lincoln County Schools","Primary","Regular school","No","Open","Pre-K","5","405","School is eligible for Title I Schoolwide program (SWP) and provides Title I Schoolwide program","Yes","Yes","No","No","Supplemental virtual","Yes participating without using any Provision or the CEP","32","01108","550-312","Lincolnton","28092","35.48008","-81.26251","Town, fringe","3710","37097","37044","402","0","402",""
"2018","370472001834","Baucom Elementary","NC","Wake County Schools","Primary","Regular school","No","Open","Pre-K","5","656","School is not eligible for either Title I Targeted Assistance or Schoolwide program","No","No","No","No","No","Yes participating without using any Provision or the CEP","41","01834","920-328","Apex","27502","35.736987","-78.854321","Suburb, large","3702","37041","37017","114","21","135",""
"2018","370216002526","Bearfield Primary","NC","Hertford County Schools","Primary","Regular school","No","Open","Pre-K","3","659","School is eligible for Title I Schoolwide program (SWP) and provides Title I Schoolwide program","Yes","Yes","No","No","No","Yes participating without using any Provision or the CEP","49","02526","460-312","Ahoskie","27910","36.29675","-76.993823","Town, distant","3701","37005","37001","656","0","656",""
"2018","370033003011","Beaufort Co Early College High","NC","Beaufort County Schools","High","Regular school","No","Open","9","13","274","School is not eligible for either Title I Targeted Assistance or Schoolwide program","No","No","No","No","No","Yes participating without using any Provision or the CEP","6","03011","070-311","Washington","27889","35.533616","-76.965355","Rural, fringe","3703","37079","37003","128","14","142",""
"2018","370063000250","Beaufort Elementary","NC","Carteret County Public Schools","Primary","Regular school","No","Open","Pre-K","5","454","School is eligible for Title I Schoolwide program (SWP) and provides Title I Schoolwide program","Yes","Yes","No","No","No","Yes participating without using any Provision or the CEP","35","00250","160-308","Beaufort","28516","34.730025","-76.644297","Town, distant","3703","37013","37002","315","14","329",""
"2018","370063000251","Beaufort Middle","NC","Carteret County Public Schools","Middle","Regular school","No","Open","6","8","277","School is eligible for Title I Schoolwide program (SWP) but provides no program","Yes","Yes","No","No","No","Yes participating without using any Provision or the CEP","21","00251","160-310","Beaufort","28516","34.729683","-76.646861","Town, distant","3703","37013","37002","179","9","188",""
"2018","370001100395","Beaver Dam Elementary","NC","Cumberland County Schools","Primary","Regular school","No","Open","Kindergarten","5","93","School is eligible for Title I Schoolwide program (SWP) and provides Title I Schoolwide program","Yes","Yes","No","No","No","Yes participating without using any Provision or the CEP","7","00395","260-312","Roseboro","28382","34.89448","-78.580797","Rural, distant","3709","37045","37019","90","0","90",""
"2018","370472003381","Beaverdam Elementary","NC","Wake County Schools","Primary","Regular school","No","Open","Pre-K","5","794","School is eligible for Title I Schoolwide program (SWP) and provides Title I Schoolwide program","Yes","Yes","No","No","No","Yes participating without using any Provision or the CEP","54","03381","920-332","Raleigh","27604","35.821127","-78.528315","Rural, fringe","3704","37039","37014","432","75","507",""
"2018","370502001994","Beddingfield High","NC","Wilson County Schools","High","Regular school","No","Open","9","12","788","School is eligible for Title I Schoolwide program (SWP) but provides no program","Yes","Yes","No","No","No","Yes participating without using any Provision or the CEP","46","01994","980-318","Wilson","27893","35.660462","-77.875353","Rural, distant","3701","37024","37004","124","39","163",""
"2018","370507002024","Bee Log Elementary","NC","Yancey County Schools","Missing/not reported","Regular school","No","Closed","","","","","","","","","","","","02024","995-308","Burnsville","28714","35.983146","-82.40826","Rural, distant","3711","37118","37047","","","",""
"2018","370045000139","Bell Elementary","NC","Buncombe County Schools","Primary","Regular school","No","Open","Kindergarten","5","298","School is eligible for Title I Schoolwide program (SWP) and provides Title I Schoolwide program","Yes","Yes","No","No","No","Yes participating without using any Provision or the CEP","21","00139","110-332","Asheville","28805","35.589551","-82.493203","City, small","3710","37115","37049","122","27","149",""
"2018","370345001417","Bell Fork Elementary","NC","Onslow County Schools","Primary","Regular school","No","Open","Kindergarten","5","599","School is eligible for Title I Schoolwide program (SWP) and provides Title I Schoolwide program","Yes","Yes","No","No","No","Yes participating without using any Provision or the CEP","39","01417","670-304","Jacksonville","28540","34.753251","-77.392177","City, small","3703","37015","37006","377","25","402",""
"2018","370162000665","Belmont Central Elementary","NC","Gaston County Schools","Primary","Regular school","No","Open","2","5","724","School is not eligible for either Title I Targeted Assistance or Schoolwide program","No","No","No","No","No","Yes participating without using any Provision or the CEP","39","00665","360-320","Belmont","28012","35.240952","-81.050749","Suburb, midsize","3710","37109","37043","178","30","208",""
"2018","370390002115","Belmont Elementary School","NC","Roanoke Rapids City Schools","Primary","Regular school","No","Open","Pre-K","5","691","School is eligible for Title I Schoolwide program (SWP) and provides Title I Schoolwide program","Yes","Yes","No","No","No","Yes participating without using any Provision or the CEP","45","02115","421-304","Roanoke Rapids","27870","36.464778","-77.674851","Town, distant","3701","37027","37004","489","64","553",""
"2018","370162000666","Belmont Middle","NC","Gaston County Schools","Middle","Regular school","No","Open","6","8","712","School is not eligible for either Title I Targeted Assistance or Schoolwide program","No","No","No","No","No","Yes participating without using any Provision or the CEP","37","00666","360-324","Belmont","28012","35.241852","-81.041657","Suburb, midsize","3710","37109","37043","181","41","222",""
"2018","370042001771","Belville Elementary","NC","Brunswick County Schools","Primary","Regular school","No","Open","Kindergarten","5","844","School is eligible for Title I Schoolwide program (SWP) and provides Title I Schoolwide program","Yes","Yes","No","No","No","Yes participating without using any Provision or the CEP","54","01771","100-302","Leland","28451","34.221153","-77.984301","Suburb, midsize","3707","37018","37008","432","15","447",""
"2018","370001201492","Belvoir Elementary","NC","Pitt County Schools","Primary","Regular school","No","Open","Pre-K","5","422","School is eligible for Title I Schoolwide program (SWP) and provides Title I Schoolwide program","Yes","Yes","No","No","No","Yes participating without using any Provision or the CEP","33","01492","740-310","Greenville","27834","35.667631","-77.417523","Rural, fringe","3701","37008","37005","419","0","419",""
"2018","370331002310","Ben D Quinn Elementary","NC","Craven County Schools","Primary","Regular school","No","Open","Pre-K","5","441","School is eligible for Title I Schoolwide program (SWP) and provides Title I Schoolwide program","Yes","Yes","No","No","No","Yes participating without using any Provision or the CEP","30","02310","250-306","New Bern","28562","35.091955","-77.128811","Rural, fringe","3703","37003","37002","180","20","200",""
"2018","370192000798","Ben L. Smith High School","NC","Guilford County Schools","High","Regular school","No","Open","9","12","1299","School is eligible for Title I Schoolwide program (SWP) and provides Title I Schoolwide program","Yes","Yes","Yes","No","No","Yes participating without using any Provision or the CEP","84","00798","410-544","Greensboro","27407","36.03474","-79.84735","City, large","3713","37058","37028","1296","0","1296",""
"2018","370201000876","Benhaven Elementary","NC","Harnett County Schools","Primary","Regular school","No","Open","Pre-K","5","918","School is eligible for Title I Schoolwide program (SWP) and provides Title I Schoolwide program","Yes","Yes","No","No","No","Yes participating without using any Provision or the CEP","57","00876","430-312","Sanford","27332","35.359453","-79.093522","Rural, fringe","3702","37051","37012","284","90","374",""
"2018","370001100429","Benjamin J Martin Elementary","NC","Cumberland County Schools","Primary","Regular school","No","Open","Pre-K","5","622","School is eligible for Title I Schoolwide program (SWP) and provides Title I Schoolwide program","Yes","Yes","No","No","No","Yes participating without using any Provision or the CEP","45","00429","260-414","Fayetteville","28303","35.093096","-79.009882","City, midsize","3708","37042","37021","615","0","615",""
"2018","370075000304","Bennett School","NC","Chatham County Schools","Primary","Regular school","No","Open","Pre-K","8","188","School is eligible for Title I Schoolwide program (SWP) and provides Title I Schoolwide program","Yes","Yes","No","No","No","Yes participating without using any Provision or the CEP","17","00304","190-304","Bennett","27208","35.56214","-79.546126","Rural, remote","3706","37054","37023","62","12","74",""
"2018","370237001009","Benson Elementary","NC","Johnston County Public Schools","Primary","Regular school","No","Open","Pre-K","4","613","School is eligible for Title I Schoolwide program (SWP) and provides Title I Schoolwide program","Yes","Yes","No","No","No","Yes participating without using any Provision or the CEP","45","01009","510-308","Benson","27504","35.399955","-78.555435","Town, fringe","3707","37028","37012","386","20","406",""
"2018","370237000582","Benson Middle","NC","Johnston County Public Schools","Middle","Regular school","No","Open","5","8","518","School is eligible for Title I Schoolwide program (SWP) and provides Title I Schoolwide program","Yes","Yes","No","No","No","Yes participating without using any Provision or the CEP","35","00582","510-310","Benson","27504","35.389778","-78.531696","Rural, fringe","3707","37028","37012","297","27","324",""
"2018","370462001299","Benton Heights Elementary","NC","Union County Public Schools","Primary","Regular school","No","Open","Pre-K","5","587","School is eligible for Title I Schoolwide program (SWP) and provides Title I Schoolwide program","Yes","Yes","No","No","No","Yes participating without using any Provision or the CEP","57","01299","900-304","Monroe","28110","34.993503","-80.55334","Suburb, large","3709","37068","37035","584","0","584",""
"2018","370327001342","Benvenue Elementary","NC","Nash-Rocky Mount Schools","Primary","Regular school","No","Open","Kindergarten","5","604","School is eligible for Title I Schoolwide program (SWP) and provides Title I Schoolwide program","Yes","Yes","No","No","No","Yes participating without using any Provision or the CEP","37","01342","640-308","Rocky Mount","27804","35.976359","-77.838463","City, small","3702","37025","37011","601","0","601",""
"2018","370297003103","Berewick Elementary","NC","Charlotte-Mecklenburg Schools","Primary","Regular school","No","Open","Pre-K","5","831","School is not eligible for either Title I Targeted Assistance or Schoolwide program","No","No","No","No","No","Yes participating without using any Provision or the CEP","46","03103","600-369","Charlotte","28278","35.173896","-80.97883","Rural, fringe","3712","37088","37041","329","64","393",""
"2018","370297001195","Berryhill School","NC","Charlotte-Mecklenburg Schools","Primary","Regular school","No","Open","Pre-K","8","506","School is eligible for Title I Schoolwide program (SWP) and provides Title I Schoolwide program","Yes","Yes","No","No","No","Yes participating without using any Provision or the CEP","42","01195","600-319","Charlotte","28278","35.212826","-80.990472","Rural, fringe","3712","37088","37041","503","0","503",""
"2018","370036003149","Bertie Early College High","NC","Bertie County Schools","High","Regular school","No","Open","9","13","175","School is eligible for Title I Schoolwide program (SWP) and provides Title I Schoolwide program","Yes","Yes","No","No","Supplemental virtual","Yes participating without using any Provision or the CEP","8","03149","080-311","Windsor","27983","36.03354","-77.014096","Rural, distant","3701","37001","37003","172","0","172",""
"2018","370036000101","Bertie High","NC","Bertie County Schools","High","Regular school","No","Open","9","12","522","School is eligible for Title I Schoolwide program (SWP) and provides Title I Schoolwide program","Yes","Yes","No","No","Supplemental virtual","Yes participating without using any Provision or the CEP","39","00101","080-312","Windsor","27983","36.050399","-76.972151","Rural, distant","3701","37001","37003","517","0","517",""
"2018","370036002818","Bertie Middle","NC","Bertie County Schools","Middle","Regular school","No","Open","6","8","494","School is eligible for Title I Schoolwide program (SWP) and provides Title I Schoolwide program","Yes","Yes","No","No","Supplemental virtual","Yes participating without using any Provision or the CEP","25","02818","080-314","Windsor","27983","36.047718","-76.965099","Rural, distant","3701","37001","37003","487","0","487",""
"2018","370162000667","Bessemer City Central Elem","NC","Gaston County Schools","Primary","Regular school","No","Open","3","5","434","School is eligible for Title I Schoolwide program (SWP) and provides Title I Schoolwide program","Yes","Yes","No","No","No","Yes participating without using any Provision or the CEP","24","00667","360-332","Bessemer City","28016","35.300829","-81.275238","Suburb, midsize","3710","37110","37043","429","0","429",""
"2018","370162000668","Bessemer City High","NC","Gaston County Schools","High","Regular school","No","Open","9","12","611","School is eligible for Title I Schoolwide program (SWP) but provides no program","Yes","Yes","No","No","No","Yes participating without using any Provision or the CEP","36","00668","360-336","Bessemer City","28016","35.29724","-81.281434","Suburb, midsize","3710","37110","37043","339","42","381",""
"2018","370162000694","Bessemer City Middle","NC","Gaston County Schools","Middle","Regular school","No","Open","6","8","552","School is eligible for Title I Schoolwide program (SWP) and provides Title I Schoolwide program","Yes","Yes","No","No","No","Yes participating without using any Provision or the CEP","35","00694","360-436","Bessemer City","28016","35.272584","-81.29979","Suburb, midsize","3710","37110","37043","549","0","549",""
"2018","370162000669","Bessemer City Primary","NC","Gaston County Schools","Primary","Regular school","No","Open","Pre-K","2","496","School is eligible for Title I Schoolwide program (SWP) and provides Title I Schoolwide program","Yes","Yes","No","No","No","Yes participating without using any Provision or the CEP","30","00669","360-338","Bessemer City","28016","35.29882","-81.27846","Suburb, midsize","3710","37110","37043","482","0","482",""
"2018","370192000760","Bessemer Elementary","NC","Guilford County Schools","Primary","Regular school","No","Open","Pre-K","5","502","School is eligible for Title I Schoolwide program (SWP) and provides Title I Schoolwide program","Yes","Yes","No","No","No","Yes participating without using any Provision or the CEP","30","00760","410-328","Greensboro","27405","36.089644","-79.737804","City, large","3706","37057","37028","499","0","499",""
"2018","370399001591","Bethany Elementary","NC","Rockingham County Schools","Primary","Regular school","No","Open","Pre-K","5","481","School is eligible for Title I Targeted Assistance (TAS) but provides no program","Yes","No","No","No","Supplemental virtual","Yes participating without using any Provision or the CEP","30","01591","790-302","Reidsville","27320","36.313148","-79.859808","Rural, distant","3706","37065","37030","139","30","169",""
"2018","370483001934","Bethel Elementary","NC","Watauga County Schools","Primary","Regular school","No","Open","Pre-K","8","156","School is eligible for Title I Schoolwide program (SWP) and provides Title I Schoolwide program","Yes","Yes","No","No","No","Yes participating without using any Provision or the CEP","17","01934","950-308","Sugar Grove","28679","36.294645","-81.848781","Rural, distant","3705","37093","37045","65","18","83",""
"2018","370204000579","Bethel Elementary","NC","Haywood County Schools","Primary","Regular school","No","Open","Kindergarten","5","509","School is eligible for Title I Schoolwide program (SWP) and provides Title I Schoolwide program","Yes","Yes","No","No","No","Yes participating without using any Provision or the CEP","32","00579","440-314","Canton","28716","35.473659","-82.8957","Rural, fringe","3711","37118","37050","220","32","252",""
"2018","370053000209","Bethel Elementary","NC","Cabarrus County Schools","Primary","Regular school","No","Open","Kindergarten","5","570","School is eligible for Title I Schoolwide program (SWP) and provides Title I Schoolwide program","Yes","Yes","No","No","No","Yes participating without using any Provision or the CEP","37","00209","130-308","Midland","28107","35.241627","-80.533832","Rural, fringe","3708","37067","37036","221","30","251",""
"2018","370001201493","Bethel Elementary","NC","Pitt County Schools","Primary","Regular school","No","Open","Pre-K","8","309","School is eligible for Title I Schoolwide program (SWP) and provides Title I Schoolwide program","Yes","Yes","No","No","Supplemental virtual","Yes participating without using any Provision or the CEP","22","01493","740-320","Bethel","27812","35.80614","-77.370391","Rural, distant","3701","37008","37005","212","10","222",""
"2018","370204000580","Bethel Middle","NC","Haywood County Schools","Middle","Regular school","No","Open","6","8","272","School is eligible for Title I Schoolwide program (SWP) but provides no program","Yes","Yes","No","No","Supplemental virtual","Yes participating without using any Provision or the CEP","20","00580","440-318","Waynesville","28786","35.472799","-82.894559","Rural, fringe","3711","37118","37050","112","25","137",""
"2018","370126000528","Bethesda Elementary","NC","Durham Public Schools","Primary","Regular school","No","Open","Pre-K","5","653","School is eligible for Title I Schoolwide program (SWP) and provides Title I Schoolwide program","Yes","Yes","No","No","No","Yes participating without using any Provision or the CEP","42","00528","320-304","Durham","27703","35.940187","-78.837761","City, large","3701","37031","37020","650","0","650",""
"2018","370009000029","Bethlehem Elementary","NC","Alexander County Schools","Primary","Regular school","No","Open","Pre-K","5","461","School is eligible for Title I Targeted Assistance (TAS) and provides TAS program","Yes","","No","No","No","Yes participating without using any Provision or the CEP","26","00029","020-304","Taylorsville","28681","35.836923","-81.312119","Rural, fringe","3705","37094","37042","130","13","143",""
"2018","370090002707","Bethware Elementary","NC","Cleveland County Schools","Primary","Regular school","No","Open","Pre-K","4","460","School is eligible for Title I Schoolwide program (SWP) and provides Title I Schoolwide program","Yes","Yes","No","No","No","Yes participating without using any Provision or the CEP","29","02707","230-304","Kings Mountain","28086","35.2482","-81.414152","Rural, fringe","3710","37111","37044","457","0","457",""
"2018","370120000493","Beulaville Elementary","NC","Duplin County Schools","Primary","Regular school","No","Open","Pre-K","8","871","School is eligible for Title I Schoolwide program (SWP) and provides Title I Schoolwide program","Yes","Yes","No","No","No","Yes participating without using any Provision or the CEP","54","00493","310-308","Beulaville","28518","34.919387","-77.764004","Rural, distant","3707","37004","37010","868","0","868",""
"2018","370053000375","Beverly Hills Elementary","NC","Cabarrus County Schools","Primary","Regular school","No","Open","Kindergarten","5","371","School is eligible for Title I Schoolwide program (SWP) and provides Title I Schoolwide program","Yes","Yes","No","No","No","Yes participating without using any Provision or the CEP","25","00375","130-309","Concord","28025","35.431866","-80.596742","City, small","3708","37083","37036","368","0","368",""
"2018","370297001196","Beverly Woods Elementary","NC","Charlotte-Mecklenburg Schools","Primary","Regular school","No","Open","Kindergarten","5","819","School is not eligible for either Title I Targeted Assistance or Schoolwide program","No","No","No","No","No","Yes participating without using any Provision or the CEP","47","01196","600-322","Charlotte","28210","35.13142","-80.836803","City, large","3709","37104","37039","97","6","103",""
"2018","370001101377","Bill Hefner Elementary","NC","Cumberland County Schools","Primary","Regular school","No","Open","Kindergarten","5","775","School is eligible for Title I Schoolwide program (SWP) and provides Title I Schoolwide program","Yes","Yes","No","No","No","Yes participating without using any Provision or the CEP","48","01377","260-367","Fayetteville","28314","35.068535","-79.04504","Rural, fringe","3708","37042","37021","772","0","772",""
"2018","370297001201","Billingsville Elementary","NC","Charlotte-Mecklenburg Schools","Primary","Regular school","No","Open","Kindergarten","2","463","School is eligible for Title I Schoolwide program (SWP) and provides Title I Schoolwide program","Yes","Yes","No","No","No","Yes participating without using any Provision or the CEP","30","01201","600-335","Charlotte","28205","35.19641","-80.809579","City, large","3712","37102","37037","451","0","451",""
"2018","370045001361","Black Mountain Elementary","NC","Buncombe County Schools","Primary","Regular school","No","Open","4","5","202","School is eligible for Title I Schoolwide program (SWP) and provides Title I Schoolwide program","Yes","Yes","No","No","No","Yes participating without using any Provision or the CEP","14","01361","110-318","Black Mountain","28711","35.622157","-82.314101","Suburb, large","3710","37115","37049","84","23","107",""
"2018","370045000138","Black Mountain Primary","NC","Buncombe County Schools","Primary","Regular school","No","Open","Kindergarten","3","412","School is eligible for Title I Schoolwide program (SWP) and provides Title I Schoolwide program","Yes","Yes","No","No","No","Yes participating without using any Provision or the CEP","29","00138","110-320","Black Mountain","28711","35.620661","-82.317961","Suburb, large","3710","37115","37049","168","33","201",""
"2018","370069000276","Blackburn Elementary","NC","Catawba County Schools","Primary","Regular school","No","Open","Kindergarten","6","604","School is eligible for Title I Schoolwide program (SWP) and provides Title I Schoolwide program","Yes","Yes","No","No","No","Yes participating without using any Provision or the CEP","36","00276","180-316","Newton","28658","35.615006","-81.331473","Rural, fringe","3710","37089","37042","237","59","296",""
"2018","370039003477","Bladen Early College","NC","Bladen County Schools","Secondary","Regular school","No","New","9","10","50","School is eligible for Title I Schoolwide program (SWP) but provides no program","Yes","Yes","No","No","No","Yes participating without using any Provision or the CEP","4","03477","090-376","Dublin","28332","34.645814","-78.731332","Rural, distant","3709","37022","37008","47","0","47",""
"2018","370039000111","Bladen Lakes Primary","NC","Bladen County Schools","Primary","Regular school","No","Open","Pre-K","4","229","School is eligible for Title I Schoolwide program (SWP) and provides Title I Schoolwide program","Yes","Yes","No","No","No","Yes participating without using any Provision or the CEP","13","00111","090-318","Elizabethtown","28337","34.711301","-78.595306","Rural, distant","3709","37022","37008","226","0","226",""
"2018","370039002617","Bladenboro Middle","NC","Bladen County Schools","Middle","Regular school","No","Open","5","8","291","School is eligible for Title I Schoolwide program (SWP) and provides Title I Schoolwide program","Yes","Yes","No","No","No","Yes participating without using any Provision or the CEP","17","02617","090-315","Bladenboro","28320","34.530333","-78.79735","Rural, distant","3709","37022","37008","287","0","287",""
"2018","370039002150","Bladenboro Primary","NC","Bladen County Schools","Primary","Regular school","No","Open","Pre-K","4","415","School is eligible for Title I Schoolwide program (SWP) and provides Title I Schoolwide program","Yes","Yes","No","No","No","Yes participating without using any Provision or the CEP","27","02150","090-317","Bladenboro","28320","34.529978","-78.794627","Rural, distant","3709","37022","37008","408","0","408",""
"2018","370483001935","Blowing Rock Elementary","NC","Watauga County Schools","Primary","Regular school","No","Open","Pre-K","8","375","School is not eligible for either Title I Targeted Assistance or Schoolwide program","No","No","No","No","No","Yes participating without using any Provision or the CEP","28","01935","950-312","Blowing Rock","28605","36.131937","-81.676163","Rural, distant","3705","37093","37045","50","22","72",""
"2018","370345001418","Blue Creek Elementary","NC","Onslow County Schools","Primary","Regular school","No","Open","Kindergarten","5","474","School is eligible for Title I Schoolwide program (SWP) and provides Title I Schoolwide program","Yes","Yes","No","No","No","Yes participating without using any Provision or the CEP","33","01418","670-308","Jacksonville","28540","34.752169","-77.477658","Suburb, midsize","3703","37015","37006","260","27","287",""
"2018","370030003294","Blue Ridge Academy","NC","Avery County Schools","High","Other/alternative school","No","Open","6","12","16","School is eligible for Title I Schoolwide program (SWP) but provides no program","Yes","Yes","No","No","No","Yes participating without using any Provision or the CEP","1","03294","060-334","Newland","28657","36.067639","-81.916107","Rural, distant","3705","37085","37046","6","2","8",""
"2018","370234003104","Blue Ridge Early College","NC","Jackson County Public Schools","High","Regular school","No","Open","7","13","157","School is not eligible for either Title I Targeted Assistance or Schoolwide program","No","No","No","No","Supplemental virtual","Yes participating without using any Provision or the CEP","12","03104","500-302","Cashiers","28717","35.128671","-83.120281","Rural, distant","3711","37119","37050","154","0","154",""
"2018","370507003497","Blue Ridge Elementary","NC","Yancey County Schools","Missing/not reported","Regular school","No","Future","","","","","","","","","","","","03497","995-310","Burnsville","28714","35.913413","-82.372538","Rural, distant","3711","37118","37047","","","",""
"2018","370021000971","Blue Ridge Elementary","NC","Ashe County Schools","Primary","Regular school","No","Open","Kindergarten","6","472","School is eligible for Title I Schoolwide program (SWP) and provides Title I Schoolwide program","Yes","Yes","No","No","No","Yes participating without using any Provision or the CEP","39","00971","050-310","Warrensville","28693","36.461178","-81.532164","Rural, fringe","3705","37093","37045","226","62","288",""
"2018","370234001001","Blue Ridge School","NC","Jackson County Public Schools","Primary","Regular school","No","Open","Pre-K","6","189","School is eligible for Title I Schoolwide program (SWP) and provides Title I Schoolwide program","Yes","Yes","No","No","No","Yes participating without using any Provision or the CEP","15","01001","500-316","Cashiers","28717","35.128415","-83.120248","Rural, distant","3711","37119","37050","186","0","186",""
"2018","370192000761","Bluford Elementary","NC","Guilford County Schools","Primary","Regular school","No","Open","Kindergarten","5","271","School is eligible for Title I Schoolwide program (SWP) and provides Title I Schoolwide program","Yes","Yes","Yes","No","No","Yes participating without using any Provision or the CEP","20","00761","410-331","Greensboro","27401","36.058023","-79.764162","City, large","3713","37061","37028","268","0","268",""
"2018","370297002397","Blythe Elementary","NC","Charlotte-Mecklenburg Schools","Primary","Regular school","No","Open","Pre-K","5","1010","School is not eligible for either Title I Targeted Assistance or Schoolwide program","No","No","Yes","No","No","Yes participating without using any Provision or the CEP","63","02397","600-442","Huntersville","28078","35.376415","-80.835292","Suburb, large","3712","37098","37041","404","78","482",""
"2018","370063002368","Bogue Sound Elementary","NC","Carteret County Public Schools","Primary","Regular school","No","Open","Pre-K","5","437","School is eligible for Title I Schoolwide program (SWP) and provides Title I Schoolwide program","Yes","Yes","No","No","No","Yes participating without using any Provision or the CEP","35","02368","160-306","Newport","28570","34.718734","-76.950757","Town, distant","3703","37013","37002","243","13","256",""
"2018","370090000335","Boiling Springs Elementary","NC","Cleveland County Schools","Primary","Regular school","No","Open","Pre-K","5","555","School is eligible for Title I Schoolwide program (SWP) and provides Title I Schoolwide program","Yes","Yes","No","No","No","Yes participating without using any Provision or the CEP","34","00335","230-308","Shelby","28152","35.239618","-81.654508","Town, distant","3710","37111","37044","274","25","299",""
"2018","370042000122","Bolivia Elementary","NC","Brunswick County Schools","Primary","Regular school","No","Open","Kindergarten","5","411","School is eligible for Title I Schoolwide program (SWP) and provides Title I Schoolwide program","Yes","Yes","No","No","No","Yes participating without using any Provision or the CEP","28","00122","100-304","Bolivia","28422","34.070342","-78.144765","Rural, distant","3707","37018","37008","281","9","290",""
"2018","370150000588","Bolton Elementary","NC","Winston Salem / Forsyth County Schools","Primary","Regular school","No","Open","Pre-K","5","431","School is eligible for Title I Schoolwide program (SWP) and provides Title I Schoolwide program","Yes","Yes","No","No","No","Yes participating without using any Provision or the CEP","38","00588","340-314","Winston Salem","27103","36.074242","-80.291061","City, midsize","3705","37071","37032","426","0","426",""
"2018","370075000305","Bonlee School","NC","Chatham County Schools","Primary","Regular school","No","Open","Kindergarten","8","313","School is eligible for Title I Schoolwide program (SWP) and provides Title I Schoolwide program","Yes","Yes","No","No","No","Yes participating without using any Provision or the CEP","23","00305","190-308","Bear Creek","27207","35.64417","-79.420701","Rural, distant","3706","37054","37023","166","18","184",""
"2018","370495001971","Boomer-Ferguson Elementary School","NC","Wilkes County Schools","Primary","Regular school","No","Open","Pre-K","5","138","School is eligible for Title I Schoolwide program (SWP) and provides Title I Schoolwide program","Yes","Yes","No","No","No","Yes participating without using any Provision or the CEP","9","01971","970-308","Boomer","28606","36.101184","-81.29776","Rural, distant","3705","37090","37045","135","0","135",""
"2018","370201000877","Boone Trail Elementary","NC","Harnett County Schools","Primary","Regular school","No","Open","Pre-K","5","634","School is eligible for Title I Schoolwide program (SWP) and provides Title I Schoolwide program","Yes","Yes","No","No","No","Yes participating without using any Provision or the CEP","42","00877","430-316","Lillington","27546","35.399962","-78.950675","Rural, distant","3702","37053","37012","406","32","438",""
"2018","370504002013","Boonville Elementary","NC","Yadkin County Schools","Other","Regular school","No","Open","Pre-K","12","361","School is eligible for Title I Schoolwide program (SWP) and provides Title I Schoolwide program","Yes","Yes","No","No","No","Yes participating without using any Provision or the CEP","25","02013","990-304","Boonville","27011","36.231731","-80.703509","Rural, distant","3705","37073","37034","178","49","227",""
"2018","370405001610","Bostian Elementary","NC","Rowan-Salisbury Schools","Primary","Regular school","No","Open","Kindergarten","5","324","School is eligible for Title I Schoolwide program (SWP) and provides Title I Schoolwide program","Yes","Yes","No","No","No","Yes participating without using any Provision or the CEP","23","01610","800-312","China Grove","28023","35.523971","-80.541973","Rural, fringe","3708","37083","37033","82","16","98",""
"2018","370300001292","Bowman Middle","NC","Mitchell County Schools","Middle","Regular school","No","Open","5","8","216","School is eligible for Title I Schoolwide program (SWP) and provides Title I Schoolwide program","Yes","Yes","No","No","No","Yes participating without using any Provision or the CEP","17","01292","610-302","Bakersville","28705","36.013036","-82.152179","Rural, distant","3711","37085","37047","88","24","112",""
"2018","370333001367","Bradley Creek Elementary","NC","New Hanover County Schools","Primary","Regular school","No","Open","Kindergarten","5","396","School is eligible for Title I Schoolwide program (SWP) and provides Title I Schoolwide program","Yes","Yes","No","No","No","Yes participating without using any Provision or the CEP","28","01367","650-304","Wilmington","28409","34.197892","-77.845224","City, midsize","3707","37019","37009","393","0","393",""
"2018","370256001584","Bragg Street Academy","NC","Lee County Schools","High","Other/alternative school","No","Open","6","12","58","School is eligible for Title I Schoolwide program (SWP) but provides no program","Yes","Yes","No","No","No","Yes participating without using any Provision or the CEP","9","01584","530-306","Sanford","27330","35.480488","-79.160207","Town, distant","3706","37051","37012","53","2","55",""
"2018","370472002221","Brassfield Elementary","NC","Wake County Schools","Primary","Regular school","No","Open","Kindergarten","5","754","School is not eligible for either Title I Targeted Assistance or Schoolwide program","No","No","No","No","No","Yes participating without using any Provision or the CEP","46","02221","920-334","Raleigh","27614","35.933568","-78.628778","Suburb, large","3702","37040","37018","212","22","234",""
"2018","370231000981","Brawley Middle","NC","Iredell-Statesville Schools","Middle","Regular school","No","Open","6","8","718","School is not eligible for either Title I Targeted Assistance or Schoolwide program","No","No","No","No","No","Yes participating without using any Provision or the CEP","37","00981","490-308","Mooresville","28117","35.58305","-80.877829","Suburb, large","3713","37095","37034","95","16","111",""
"2018","370378001976","Braxton Craven Middle","NC","Randolph County School System","Middle","Regular school","No","Open","6","6","355","School is eligible for Title I Schoolwide program (SWP) but provides no program","Yes","Yes","No","No","No","Yes participating without using any Provision or the CEP","19","01976","760-308","Trinity","27370","35.893429","-79.991988","Suburb, midsize","3706","37070","37026","136","22","158",""
"2018","370472001836","Brentwood Elementary","NC","Wake County Schools","Primary","Regular school","No","Open","Pre-K","5","421","School is eligible for Title I Schoolwide program (SWP) and provides Title I Schoolwide program","Yes","Yes","Yes","No","No","Yes participating without using any Provision or the CEP","35","01836","920-336","Raleigh","27604","35.830012","-78.596747","City, large","3704","37038","37015","284","31","315",""
"2018","370001100397","Brentwood Elementary","NC","Cumberland County Schools","Primary","Regular school","No","Open","Pre-K","5","482","School is eligible for Title I Schoolwide program (SWP) and provides Title I Schoolwide program","Yes","Yes","No","No","No","Yes participating without using any Provision or the CEP","42","00397","260-320","Fayetteville","28304","35.038178","-78.9832","City, midsize","3708","37042","37021","479","0","479",""
"2018","370453001777","Brevard Elementary","NC","Transylvania County Schools","Primary","Regular school","No","Open","Pre-K","5","543","School is eligible for Title I Schoolwide program (SWP) and provides Title I Schoolwide program","Yes","Yes","No","No","No","Yes participating without using any Provision or the CEP","36","01777","880-304","Brevard","28712","35.22517","-82.722177","Town, fringe","3711","37113","37048","257","31","288",""
"2018","370453001778","Brevard High","NC","Transylvania County Schools","High","Regular school","No","Open","9","12","724","School is eligible for Title I Targeted Assistance (TAS) but provides no program","Yes","No","No","No","Supplemental virtual","Yes participating without using any Provision or the CEP","55","01778","880-308","Brevard","28712","35.217205","-82.735576","Town, fringe","3711","37113","37048","220","35","255",""
"2018","370453001779","Brevard Middle","NC","Transylvania County Schools","Middle","Regular school","No","Open","6","8","558","School is eligible for Title I Schoolwide program (SWP) but provides no program","Yes","Yes","No","No","Supplemental virtual","Yes participating without using any Provision or the CEP","43","01779","880-312","Brevard","28712","35.246176","-82.728652","Town, fringe","3711","37113","37048","237","35","272",""
"2018","370472001837","Briarcliff Elementary","NC","Wake County Schools","Primary","Regular school","No","Open","Pre-K","5","537","School is eligible for Title I Schoolwide program (SWP) and provides Title I Schoolwide program","Yes","Yes","No","No","No","Yes participating without using any Provision or the CEP","35","01837","920-340","Cary","27511","35.769071","-78.786997","Suburb, large","3704","37011","37016","190","34","224",""
"2018","370297001198","Briarwood Elementary","NC","Charlotte-Mecklenburg Schools","Primary","Regular school","No","Open","Pre-K","5","719","School is eligible for Title I Schoolwide program (SWP) and provides Title I Schoolwide program","Yes","Yes","No","No","No","Yes participating without using any Provision or the CEP","49","01198","600-329","Charlotte","28215","35.252048","-80.765664","City, large","3712","37099","37040","716","0","716",""
"2018","370063003317","Bridges School","NC","Carteret County Public Schools","High","Other/alternative school","No","Open","6","12","23","School is eligible for Title I Schoolwide program (SWP) but provides no program","Yes","Yes","No","No","Supplemental virtual","Yes participating without using any Provision or the CEP","5","03317","160-309","Morehead City","28557","34.73853","-76.789486","Town, distant","3703","37013","37002","18","1","19",""
"2018","370331000381","Bridgeton Elementary","NC","Craven County Schools","Primary","Regular school","No","Open","Pre-K","5","370","School is eligible for Title I Schoolwide program (SWP) and provides Title I Schoolwide program","Yes","Yes","No","No","No","Yes participating without using any Provision or the CEP","27","00381","250-308","New Bern","28560","35.154579","-77.042214","Rural, fringe","3703","37079","37002","224","16","240",""
"2018","370472002887","Brier Creek Elementary","NC","Wake County Schools","Primary","Regular school","No","Open","Pre-K","5","720","School is not eligible for either Title I Targeted Assistance or Schoolwide program","No","No","No","No","No","Yes participating without using any Provision or the CEP","48","02887","920-342","Raleigh","27617","35.901538","-78.804873","City, large","3704","37049","37016","218","29","247",""
"2018","370114002664","Brier Creek Elementary","NC","Davidson County Schools","Primary","Regular school","No","Open","Pre-K","5","291","School is eligible for Title I Schoolwide program (SWP) and provides Title I Schoolwide program","Yes","Yes","No","No","No","Yes participating without using any Provision or the CEP","18","02664","290-302","Thomasville","27360","35.797602","-80.087052","Rural, fringe","3713","37080","37029","145","21","166",""
"2018","370192000818","Brightwood Elementary","NC","Guilford County Schools","Primary","Regular school","No","Open","Pre-K","5","556","School is eligible for Title I Schoolwide program (SWP) and provides Title I Schoolwide program","Yes","Yes","No","No","No","Yes participating without using any Provision or the CEP","36","00818","410-334","Greensboro","27405","36.147891","-79.751726","Rural, fringe","3706","37057","37027","553","0","553",""
"2018","370331002171","Brinson Memorial Elementary","NC","Craven County Schools","Primary","Regular school","No","Open","Kindergarten","5","592","School is eligible for Title I Schoolwide program (SWP) and provides Title I Schoolwide program","Yes","Yes","No","No","No","Yes participating without using any Provision or the CEP","43","02171","250-312","New Bern","28560","35.068031","-77.017483","Suburb, small","3703","37003","37002","271","36","307",""
"2018","370063002205","Broad Creek Middle","NC","Carteret County Public Schools","Middle","Regular school","No","Open","6","8","667","School is not eligible for either Title I Targeted Assistance or Schoolwide program","No","No","No","No","No","Yes participating without using any Provision or the CEP","41","02205","160-311","Newport","28570","34.729749","-76.913808","Rural, fringe","3703","37013","37002","260","13","273",""
"2018","370003000196","Broadview Middle","NC","Alamance-Burlington Schools","Middle","Regular school","No","Open","6","8","761","School is eligible for Title I Schoolwide program (SWP) and provides Title I Schoolwide program","Yes","Yes","No","No","No","Yes participating without using any Provision or the CEP","50","00196","010-310","Burlington","27217","36.087455","-79.396973","City, small","3706","37063","37024","758","0","758",""
"2018","370256001074","Broadway Elementary","NC","Lee County Schools","Primary","Regular school","No","Open","Pre-K","5","588","School is eligible for Title I Schoolwide program (SWP) and provides Title I Schoolwide program","Yes","Yes","No","No","No","Yes participating without using any Provision or the CEP","42","01074","530-308","Broadway","27505","35.452116","-79.052823","Rural, distant","3706","37051","37012","403","27","430",""
"2018","370488001945","Brogden Middle","NC","Wayne County Public Schools","Middle","Regular school","No","Open","5","8","570","School is eligible for Title I Schoolwide program (SWP) and provides Title I Schoolwide program","Yes","Yes","No","No","No","Yes participating without using any Provision or the CEP","32","01945","960-312","Dudley","28333","35.293156","-78.037604","Rural, fringe","3707","37021","37007","558","0","558",""
"2018","370126000245","Brogden Middle","NC","Durham Public Schools","Middle","Regular school","No","Open","6","8","515","School is eligible for Title I Schoolwide program (SWP) and provides Title I Schoolwide program","Yes","Yes","No","No","Supplemental virtual","Yes participating without using any Provision or the CEP","41","00245","320-306","Durham","27704","36.024673","-78.9093","City, large","3701","37031","37022","365","17","382",""
"2018","370488001946","Brogden Primary","NC","Wayne County Public Schools","Primary","Regular school","No","Open","Pre-K","4","806","School is eligible for Title I Schoolwide program (SWP) and provides Title I Schoolwide program","Yes","Yes","No","No","No","Yes participating without using any Provision or the CEP","58","01946","960-314","Dudley","28333","35.272352","-78.035862","Rural, fringe","3707","37021","37007","800","0","800",""
"2018","370472001838","Brooks Elementary","NC","Wake County Schools","Primary","Regular school","No","Open","Pre-K","5","648","School is not eligible for either Title I Targeted Assistance or Schoolwide program","No","No","Yes","No","No","Yes participating without using any Provision or the CEP","42","01838","920-344","Raleigh","27609","35.844956","-78.65451","City, large","3704","37034","37018","232","30","262",""
"2018","370192002295","Brooks Global Elementary","NC","Guilford County Schools","Primary","Regular school","No","Open","Kindergarten","5","366","School is not eligible for either Title I Targeted Assistance or Schoolwide program","No","No","Yes","No","No","Yes participating without using any Provision or the CEP","22","02295","410-337","Greensboro","27408","36.087159","-79.81492","City, large","3713","37061","37028","125","19","144",""
"2018","370162001107","Brookside Elementary","NC","Gaston County Schools","Primary","Regular school","No","Open","Pre-K","5","559","School is eligible for Title I Schoolwide program (SWP) and provides Title I Schoolwide program","Yes","Yes","No","No","No","Yes participating without using any Provision or the CEP","37","01107","360-340","Gastonia","28054","35.293532","-81.151175","City, small","3710","37108","37043","556","0","556",""
"2018","370192002732","Brown Summit Middle","NC","Guilford County Schools","Middle","Regular school","No","Open","6","8","244","School is not eligible for either Title I Targeted Assistance or Schoolwide program","No","No","Yes","No","No","Yes participating without using any Provision or the CEP","12","02732","410-341","Browns Summit","27214","36.210721","-79.702209","Rural, fringe","3706","37059","37027","28","12","40",""
"2018","370210000927","Bruce Drysdale Elementary","NC","Henderson County Schools","Primary","Regular school","No","Open","Kindergarten","5","464","School is eligible for Title I Schoolwide program (SWP) and provides Title I Schoolwide program","Yes","Yes","No","No","No","Yes participating without using any Provision or the CEP","36","00927","450-306","Hendersonville","28792","35.322293","-82.461048","Suburb, large","3711","37117","37048","277","44","321",""
